{
  "sport": "softball",
  "label": "Softball",
  "season": "2026",
  "lastUpdated": "2026-04-09",
  "home": { "city": "Waco, TX", "lat": 31.5493, "lng": -97.1467 },
  "colors": { "conference": "#FFB81C", "nonConference": "#4ecdc4" },
  "congestionThreshold": { "games": 5, "windowDays": 7 },
  "trips": [
    {
      "id": "florida-swing",
      "label": "Florida Swing",
      "travelMode": "flight",
      "stops": ["DeLand, FL", "Orlando, FL"]
    }
  ],
  "games": [
    { "date": "Feb 5",   "opponent": "Mississippi State", "location": "Waco, TX",       "lat": 31.5493, "lng": -97.1467,  "home": true,  "result": "L 0-10", "conference": false, "tournament": "Getterman Classic", "tripId": null, "travelMode": null },
    { "date": "Feb 6",   "opponent": "New Mexico",        "location": "Waco, TX",       "lat": 31.5493, "lng": -97.1467,  "home": true,  "result": "W 8-7",  "conference": false, "tournament": "Getterman Classic", "tripId": null, "travelMode": null },
    { "date": "Feb 6",   "opponent": "Wichita State",     "location": "Waco, TX",       "lat": 31.5493, "lng": -97.1467,  "home": true,  "result": "W 3-2",  "conference": false, "tournament": "Getterman Classic", "tripId": null, "travelMode": null },
    { "date": "Feb 7",   "opponent": "Wichita State",     "location": "Waco, TX",       "lat": 31.5493, "lng": -97.1467,  "home": true,  "result": "W 9-8",  "conference": false, "tournament": "Getterman Classic", "tripId": null, "travelMode": null },
    { "date": "Feb 8",   "opponent": "Northwestern St.",  "location": "Waco, TX",       "lat": 31.5493, "lng": -97.1467,  "home": true,  "result": "W 9-1",  "conference": false, "tournament": "Getterman Classic", "tripId": null, "travelMode": null },
    { "date": "Feb 10",  "opponent": "South Dakota St.",  "location": "Waco, TX",       "lat": 31.5493, "lng": -97.1467,  "home": true,  "result": "W 10-2", "conference": false, "tripId": null, "travelMode": null },
    { "date": "Feb 12",  "opponent": "San Diego State",   "location": "San Diego, CA",  "lat": 32.7749, "lng": -117.0714, "home": false, "result": "L 3-4",  "conference": false, "tournament": "Campbell/Cartier Classic", "tripId": null, "travelMode": "flight" },
    { "date": "Feb 13",  "opponent": "Oregon State",      "location": "San Diego, CA",  "lat": 32.7749, "lng": -117.0714, "home": false, "result": "W 5-4",  "conference": false, "tournament": "Campbell/Cartier Classic", "tripId": null, "travelMode": "flight" },
    { "date": "Feb 13",  "opponent": "San Diego State",   "location": "San Diego, CA",  "lat": 32.7749, "lng": -117.0714, "home": false, "result": "W 11-2", "conference": false, "tournament": "Campbell/Cartier Classic", "tripId": null, "travelMode": "flight" },
    { "date": "Feb 14",  "opponent": "Fordham",           "location": "San Diego, CA",  "lat": 32.7749, "lng": -117.0714, "home": false, "result": "W 6-1",  "conference": false, "tournament": "Campbell/Cartier Classic", "tripId": null, "travelMode": "flight" },
    { "date": "Feb 14",  "opponent": "North Dakota",      "location": "San Diego, CA",  "lat": 32.7749, "lng": -117.0714, "home": false, "result": "W 2-0",  "conference": false, "tournament": "Campbell/Cartier Classic", "tripId": null, "travelMode": "flight" },
    { "date": "Feb 20",  "opponent": "Lipscomb",          "location": "Clemson, SC",    "lat": 34.6834, "lng": -82.8374,  "home": false, "result": "W 6-4",  "conference": false, "tournament": "Clemson Classic", "tripId": null, "travelMode": "flight" },
    { "date": "Feb 21",  "opponent": "Coastal Carolina",  "location": "Clemson, SC",    "lat": 34.6834, "lng": -82.8374,  "home": false, "result": "W 3-2",  "conference": false, "tournament": "Clemson Classic", "tripId": null, "travelMode": "flight" },
    { "date": "Feb 21",  "opponent": "Clemson",           "location": "Clemson, SC",    "lat": 34.6834, "lng": -82.8374,  "home": false, "result": "L 0-8",  "conference": false, "tournament": "Clemson Classic", "tripId": null, "travelMode": "flight" },
    { "date": "Feb 22",  "opponent": "Clemson",           "location": "Clemson, SC",    "lat": 34.6834, "lng": -82.8374,  "home": false, "result": "L 0-3",  "conference": false, "tournament": "Clemson Classic", "tripId": null, "travelMode": "flight" },
    { "date": "Feb 25",  "opponent": "Sam Houston",       "location": "Huntsville, TX", "lat": 30.7235, "lng": -95.5508,  "home": false, "result": "W 6-3",  "conference": false, "tripId": null, "travelMode": "bus" },
    { "date": "Feb 28",  "opponent": "McNeese",           "location": "Waco, TX",       "lat": 31.5493, "lng": -97.1467,  "home": true,  "result": "L 4-5",  "conference": false, "tripId": null, "travelMode": null },
    { "date": "Feb 28",  "opponent": "McNeese",           "location": "Waco, TX",       "lat": 31.5493, "lng": -97.1467,  "home": true,  "result": "L 2-6",  "conference": false, "tripId": null, "travelMode": null },
    { "date": "Mar 1",   "opponent": "McNeese",           "location": "Waco, TX",       "lat": 31.5493, "lng": -97.1467,  "home": true,  "result": "W 8-0",  "conference": false, "tripId": null, "travelMode": null },
    { "date": "Mar 3",   "opponent": "Stephen F. Austin", "location": "Waco, TX",       "lat": 31.5493, "lng": -97.1467,  "home": true,  "result": "W 4-0",  "conference": false, "tripId": null, "travelMode": null },
    { "date": "Mar 6",   "opponent": "Iowa State",        "location": "Waco, TX",       "lat": 31.5493, "lng": -97.1467,  "home": true,  "result": "W 8-1",  "conference": false, "tripId": null, "travelMode": null },
    { "date": "Mar 6",   "opponent": "Iowa State",        "location": "Waco, TX",       "lat": 31.5493, "lng": -97.1467,  "home": true,  "result": "W 4-2",  "conference": false, "tripId": null, "travelMode": null },
    { "date": "Mar 7-8", "opponent": "Iowa State",        "location": "Waco, TX",       "lat": 31.5493, "lng": -97.1467,  "home": true,  "result": "W 5-4",  "conference": false, "tripId": null, "travelMode": null },
    { "date": "Mar 11",  "opponent": "Stetson",           "location": "DeLand, FL",     "lat": 29.0283, "lng": -81.3032,  "home": false, "result": null,      "conference": false, "tripId": "florida-swing", "travelMode": null },
    { "date": "Mar 13",  "opponent": "UCF",               "location": "Orlando, FL",    "lat": 28.6024, "lng": -81.2001,  "home": false, "result": null,      "conference": true,  "tripId": "florida-swing", "travelMode": null },
    { "date": "Mar 14",  "opponent": "UCF",               "location": "Orlando, FL",    "lat": 28.6024, "lng": -81.2001,  "home": false, "result": null,      "conference": true,  "tripId": "florida-swing", "travelMode": null },
    { "date": "Mar 15",  "opponent": "UCF",               "location": "Orlando, FL",    "lat": 28.6024, "lng": -81.2001,  "home": false, "result": null,      "conference": true,  "tripId": "florida-swing", "travelMode": null },
    { "date": "Mar 20",  "opponent": "Texas",             "location": "Austin, TX",     "lat": 30.2849, "lng": -97.7341,  "home": false, "result": null,      "conference": false, "tripId": null, "travelMode": "bus" },
    { "date": "Mar 21",  "opponent": "Texas",             "location": "Waco, TX",       "lat": 31.5493, "lng": -97.1467,  "home": true,  "result": null,      "conference": false, "tripId": null, "travelMode": null },
    { "date": "Mar 24",  "opponent": "UT Arlington",      "location": "Waco, TX",       "lat": 31.5493, "lng": -97.1467,  "home": true,  "result": null,      "conference": false, "tripId": null, "travelMode": null },
    { "date": "Mar 27",  "opponent": "Arizona",           "location": "Tucson, AZ",     "lat": 32.2319, "lng": -110.9501, "home": false, "result": null,      "conference": true,  "tripId": null, "travelMode": "flight" },
    { "date": "Mar 28",  "opponent": "Arizona",           "location": "Tucson, AZ",     "lat": 32.2319, "lng": -110.9501, "home": false, "result": null,      "conference": true,  "tripId": null, "travelMode": "flight" },
    { "date": "Mar 29",  "opponent": "Arizona",           "location": "Tucson, AZ",     "lat": 32.2319, "lng": -110.9501, "home": false, "result": null,      "conference": true,  "tripId": null, "travelMode": "flight" },
    { "date": "Mar 31",  "opponent": "Incarnate Word",    "location": "Waco, TX",       "lat": 31.5493, "lng": -97.1467,  "home": true,  "result": null,      "conference": false, "tripId": null, "travelMode": null },
    { "date": "Apr 2",   "opponent": "Houston",           "location": "Waco, TX",       "lat": 31.5493, "lng": -97.1467,  "home": true,  "result": null,      "conference": false, "tripId": null, "travelMode": null },
    { "date": "Apr 3",   "opponent": "Houston",           "location": "Waco, TX",       "lat": 31.5493, "lng": -97.1467,  "home": true,  "result": null,      "conference": true,  "tripId": null, "travelMode": null },
    { "date": "Apr 4",   "opponent": "Houston",           "location": "Waco, TX",       "lat": 31.5493, "lng": -97.1467,  "home": true,  "result": null,      "conference": true,  "tripId": null, "travelMode": null },
    { "date": "Apr 6",   "opponent": "Lamar",             "location": "Waco, TX",       "lat": 31.5493, "lng": -97.1467,  "home": true,  "result": null,      "conference": false, "tripId": null, "travelMode": null },
    { "date": "Apr 8",   "opponent": "UT Arlington",      "location": "Arlington, TX",  "lat": 32.7299, "lng": -97.1151,  "home": false, "result": null,      "conference": false, "tripId": null, "travelMode": "bus" },
    { "date": "Apr 10",  "opponent": "Kansas",            "location": "Lawrence, KS",   "lat": 38.9543, "lng": -95.2558,  "home": false, "result": null,      "conference": true,  "tripId": null, "travelMode": "charter" },
    { "date": "Apr 11",  "opponent": "Kansas",            "location": "Lawrence, KS",   "lat": 38.9543, "lng": -95.2558,  "home": false, "result": null,      "conference": true,  "tripId": null, "travelMode": "charter" },
    { "date": "Apr 12",  "opponent": "Kansas",            "location": "Lawrence, KS",   "lat": 38.9543, "lng": -95.2558,  "home": false, "result": null,      "conference": true,  "tripId": null, "travelMode": "charter" },
    { "date": "Apr 15",  "opponent": "Texas A&M",         "location": "Waco, TX",       "lat": 31.5493, "lng": -97.1467,  "home": true,  "result": null,      "conference": false, "tripId": null, "travelMode": null },
    { "date": "Apr 17",  "opponent": "Utah",              "location": "Waco, TX",       "lat": 31.5493, "lng": -97.1467,  "home": true,  "result": null,      "conference": true,  "tripId": null, "travelMode": null },
    { "date": "Apr 18",  "opponent": "Utah",              "location": "Waco, TX",       "lat": 31.5493, "lng": -97.1467,  "home": true,  "result": null,      "conference": true,  "tripId": null, "travelMode": null },
    { "date": "Apr 19",  "opponent": "Utah",              "location": "Waco, TX",       "lat": 31.5493, "lng": -97.1467,  "home": true,  "result": null,      "conference": true,  "tripId": null, "travelMode": null },
    { "date": "Apr 22",  "opponent": "Texas State",       "location": "San Marcos, TX", "lat": 29.8833, "lng": -97.9414,  "home": false, "result": null,      "conference": false, "tripId": null, "travelMode": "bus" },
    { "date": "Apr 24",  "opponent": "Oklahoma State",    "location": "Waco, TX",       "lat": 31.5493, "lng": -97.1467,  "home": true,  "result": null,      "conference": true,  "tripId": null, "travelMode": null },
    { "date": "Apr 25",  "opponent": "Oklahoma State",    "location": "Waco, TX",       "lat": 31.5493, "lng": -97.1467,  "home": true,  "result": null,      "conference": true,  "tripId": null, "travelMode": null },
    { "date": "Apr 26",  "opponent": "Oklahoma State",    "location": "Waco, TX",       "lat": 31.5493, "lng": -97.1467,  "home": true,  "result": null,      "conference": true,  "tripId": null, "travelMode": null },
    { "date": "Apr 30",  "opponent": "Texas Tech",        "location": "Lubbock, TX",    "lat": 33.5843, "lng": -101.8456, "home": false, "result": null,      "conference": true,  "tripId": null, "travelMode": "bus" },
    { "date": "May 1",   "opponent": "Texas Tech",        "location": "Lubbock, TX",    "lat": 33.5843, "lng": -101.8456, "home": false, "result": null,      "conference": true,  "tripId": null, "travelMode": "bus" },
    { "date": "May 2",   "opponent": "Texas Tech",        "location": "Lubbock, TX",    "lat": 33.5843, "lng": -101.8456, "home": false, "result": null,      "conference": true,  "tripId": null, "travelMode": "bus" },
    { "date": "May 6-9", "opponent": "Big 12 Tournament", "location": "Oklahoma City, OK", "lat": 35.4676, "lng": -97.5164, "home": false, "result": null,   "conference": true,  "tournament": "Big 12 Tournament", "tripId": null, "travelMode": "bus" }
  ]
}
